{
  "product_deliveries": [
    {
      "pr_id": "000000001",
      "subsidiary_id": 911,
      "location": {
        "address_line_1": "JL Jend Sudirman Kav 45",
        "address_line_2": "Sampoerna Strategic Square",
        "subdistrict": "Setia Budi",
        "city": "Kota Jakarta Selatan",
        "province": "DKI Jakarta",
        "postcode": "28283",
        "longitude": 0,
        "latitude": 0
      },
      "products": [{
        "name": "Television",
        "quantity": 10,
        "requested_brand": "Requested Brand",
        "uom": "uom",
        "notes": "notes",
        "material_number": "13234324343243"
      }, 
      {
        "name": "Mesin cuci",
        "quantity": 10,
        "requested_brand": "Samsung",
        "uom": "uom",
        "notes": "notes",
        "material_number": "13234324343243"
      }]
    },
    {
      "pr_id": "000000002",
      "subsidiary_id": 910,
      "location": {
        "address_line_1": "JL Jend Sudirman Kav 45",
        "address_line_2": "Sampoerna Strategic Square",
        "subdistrict": "Setia Budi",
        "city": "Kota Jakarta Selatan",
        "province": "DKI Jakarta",
        "postcode": "28283",
        "longitude": 0,
        "latitude": 0
      },
      "products": [{
        "name": "Television",
        "quantity": 10,
        "requested_brand": "Requested Brand",
        "uom": "uom",
        "notes": "notes",
        "material_number": "13234324343243"
      }]
    }
  ]
}
